[
    {
        "locationId": "LOC-001",
        "address": "123 Elm St, Springfield, IL",
        "latitude": "39.7817",
        "longitude": "-89.6501"
    },
    {
        "locationId": "LOC-002",
        "address": "456 Oak St, Springfield, IL",
        "latitude": "39.7900",
        "longitude": "-89.6441"
    },
    {
        "locationId": "LOC-003",
        "address": "789 Pine St, Springfield, IL",
        "latitude": "39.8000",
        "longitude": "-89.6600"
    },
    {
        "locationId": "LOC-004",
        "address": "321 Maple St, Springfield, IL",
        "latitude": "39.8200",
        "longitude": "-89.6550"
    },
    {
        "locationId": "LOC-005",
        "address": "654 Spruce St, Springfield, IL",
        "latitude": "39.8300",
        "longitude": "-89.6700"
    },
    {
        "locationId": "LOC-006",
        "address": "987 Cedar St, Springfield, IL",
        "latitude": "39.8400",
        "longitude": "-89.6400"
    },
    {
        "locationId": "LOC-007",
        "address": "246 Willow St, Springfield, IL",
        "latitude": "39.8500",
        "longitude": "-89.6300"
    },
    {
        "locationId": "LOC-008",
        "address": "135 Birch St, Springfield, IL",
        "latitude": "39.8600",
        "longitude": "-89.6200"
    },
    {
        "locationId": "LOC-009",
        "address": "875 Maple Ln, Springfield, IL",
        "latitude": "39.8700",
        "longitude": "-89.6100"
    },
    {
        "locationId": "LOC-010",
        "address": "964 Oak Ave, Springfield, IL",
        "latitude": "39.8800",
        "longitude": "-89.6000"
    },
    {
        "locationId": "LOC-011",
        "address": "253 Pine Cir, Springfield, IL",
        "latitude": "39.8900",
        "longitude": "-89.5900"
    },
    {
        "locationId": "LOC-012",
        "address": "342 Elm Dr, Springfield, IL",
        "latitude": "39.9000",
        "longitude": "-89.5800"
    },
    {
        "locationId": "LOC-013",
        "address": "431 Birch Pass, Springfield, IL",
        "latitude": "39.9100",
        "longitude": "-89.5700"
    },
    {
        "locationId": "LOC-014",
        "address": "520 Cedar Rd, Springfield, IL",
        "latitude": "39.9200",
        "longitude": "-89.5600"
    },
    {
        "locationId": "LOC-015",
        "address": "619 Spruce Way, Springfield, IL",
        "latitude": "39.9300",
        "longitude": "-89.5500"
    },
    {
        "locationId": "LOC-016",
        "address": "708 Willow St, Springfield, IL",
        "latitude": "39.9400",
        "longitude": "-89.5400"
    },
    {
        "locationId": "LOC-017",
        "address": "797 Maple Ct, Springfield, IL",
        "latitude": "39.9500",
        "longitude": "-89.5300"
    },
    {
        "locationId": "LOC-018",
        "address": "886 Oak Ln, Springfield, IL",
        "latitude": "39.9600",
        "longitude": "-89.5200"
    },
    {
        "locationId": "LOC-019",
        "address": "975 Pine St, Springfield, IL",
        "latitude": "39.9700",
        "longitude": "-89.5100"
    },
    {
        "locationId": "LOC-020",
        "address": "1064 Elm Ave, Springfield, IL",
        "latitude": "39.9800",
        "longitude": "-89.5000"
    }
]